city,long,lat,valor
lima,-77.042793,-12.046374,1027
bogota,-74.063644,4.624335,0
buenos aires,-58.381592,-34.603722,338
rio de janeiro,-43.196388,-22.908333,0
sao paulo,-46.625290,-23.533773,0
santiago,-70.673676,-33.447487,1521
